ODOM 1624426287.19101906 0 0
GNSS 1624426287.22183037 39.8716278074999977 116.477817216999995 37.1386985778808594 6.2900999999999998 0
IMU 1624426287.22854877 0.000680678408277777028 -0.000532325421858261482 0.000656243798749856877 -0.605724081666666581 0.0254972899999999988 9.80681344416666789
IMU 1624426287.23854017 -0.00131946891450769078 0.000115191730631623808 -0.000605629250442022153 -0.608339188333333336 0.00392265999999999969 9.80795755333333297
IMU 1624426287.2485435 -0.000457276264022506607 0.00200538331054145097 0.000167551608191452789 -0.623702940000000039 0.0148734191666666654 9.8019101191666671
IMU 1624426287.25859165 -0.000734783615089600268 0.000637045176977919445 0 -0.616511396666666656 0.0243531808333333349 9.81040921583333336
IMU 1624426287.26852942 -9.77384381116807959e-05 -0.000366519142918803032 -0.00273842159637905681 -0.623702940000000039 0.0184691908333333328 9.80550589083333257
IMU 1624426287.27856612 1.39626340159544013e-05 0.00126361837844387345 -0.000816814089933332499 -0.611771515833333335 0.0171616375000000002 9.80926510666666651
IMU 1624426287.28857923 -0.00020594885173532741 0.000527089434102278654 0.000164060949687464219 -0.611771515833333335 0.0266413991666666662 9.80926510666666651
ODOM 1624426287.29101515 0 0
IMU 1624426287.29858327 0.000680678408277777028 -0.000794124809657406551 -0.000328121899374928438 -0.616674840833333238 0.0122583125000000001 9.81400498749999883
IMU 1624426287.30860615 -0.000144862327915526895 0.000949459113084899129 -0.00109083078249643754 -0.614223178333333286 0.0183057466666666641 9.80566933499999926
IMU 1624426287.31867337 -9.94837673636751079e-05 0.000527089434102278654 -0.00038048177693475742 -0.617818949999999978 0.0160175283333333328 9.80436178166666572
GNSS 1624426287.32185411 39.8716278628333285 116.477817248000008 37.1412010192871094 6.82160000000000011 0
IMU 1624426287.32855296 0.000734783615089600268 -0.000479965544298432501 0.000219911485751281797 -0.623702940000000039 0.0207574091666666675 9.80795755333333297
IMU 1624426287.33858418 0.000891863247769087374 -0.000270526034059116521 0.00153414441250298975 -0.615203843333333333 0.0338329424999999975 9.81531254083333238
IMU 1624426287.34854603 0.000851720674973218523 0.000520108117094301406 -0.00037699111843076885 -0.599676647500000048 0.0241897366666666627 9.80697688833333281
IMU 1624426287.35853338 -0.00110653874576438624 0.000219911485751281797 -0.000659734457253845392 -0.616511396666666656 0.0254972899999999988 9.80207356333333379
IMU 1624426287.36853743 -0.000741764932097577624 -0.000361283155162820096 -0.000605629250442022153 -0.609319853333333272 0.0171616375000000002 9.7973336824999997
IMU 1624426287.37855029 -0.00179943445880612323 0.000225147473507264706 0.00032114058236695119 -0.605560637499999999 0.0302371708333333301 9.79847779166666655
IMU 1624426287.38863659 -0.000731292956585611752 -0.000202458193231338786 -0.00274016692563105102 -0.623702940000000039 0.0196133000000000002 9.80795755333333297
ODOM 1624426287.39104939 0 0
IMU 1624426287.39856029 -0.000891863247769087374 0.000902335223281053138 0.000326376570122934126 -0.617818949999999978 0.0148734191666666654 9.80550589083333257
IMU 1624426287.40855837 -0.000261799387799145015 0.000842994028713246963 0.00153414441250298975 -0.617818949999999978 0.0254972899999999988 9.81514909666666568
IMU 1624426287.41855216 -0.000837758040957264027 -0.000150098315671509804 -0.00246615023306794631 -0.611771515833333335 0.0124217566666666654 9.79847779166666655
GNSS 1624426287.42183423 39.8716277750000003 116.477817234 37.1403007507324219 6.70150000000000023 0
IMU 1624426287.42855072 -0.000837758040957264027 0.000902335223281053138 -5.41052068118233001e-05 -0.612915624999999964 0.0254972899999999988 9.81645664999999923
IMU 1624426287.43854308 -0.000481710873550426813 -0.000469493568786466737 0.000542797397370227354 -0.608175744166666643 0.0219015183333333315 9.81040921583333336
IMU 1624426287.44854593 0.000216420827247293201 5.06145483078346964e-05 -0.00142069801112336023 -0.618963059166666607 0.0219015183333333315 9.81629320583333254
IMU 1624426287.45853782 -3.49065850398860034e-06 -0.000209439510239316007 0.000764454212373503355 -0.614223178333333286 0.0111142033333333327 9.81629320583333254
IMU 1624426287.46853566 -6.28318530717947993e-05 -0.000684169066781765652 0.00120078652537207843 -0.614059734166666593 0.0220649624999999967 9.79962190083333162
IMU 1624426287.47853279 -0.000846484687217235587 -0.000202458193231338786 -0.000277507351067093715 -0.624847049166666668 0.0196133000000000002 9.80795755333333297
IMU 1624426287.48856306 -0.00137357412131951435 0.000378736447682763108 0.000378736447682763108 -0.621251277499999977 0.0220649624999999967 9.80076600999999847
ODOM 1624426287.49103713 0 0
IMU 1624426287.4985466 0.000673697091269799889 -0.00158475896081082448 -1.74532925199430017e-06 -0.611934959999999917 0.0122583125000000001 9.81400498749999883
IMU 1624426287.50855398 -0.00184655834860996955 0.00069813170079772004 4.88692190558403979e-05 -0.62844282083333336 0.0256607341666666676 9.79962190083333162
IMU 1624426287.51855445 -0.000178023583703418607 -0.00131597825600370216 0.00207345115136922838 -0.617818949999999978 0.00997009416666666537 9.80321767250000065
GNSS 1624426287.52196884 39.8716276984999993 116.477817015499994 37.1599998474121094 6.83760000000000012 0
IMU 1624426287.52854609 -0.000157079632679486998 0.000631809189221936725 0.00126012771993988461 -0.609319853333333272 0.0171616375000000002 9.79847779166666655
IMU 1624426287.53854918 -0.000370009801422791602 -0.000364773813666808666 -0.000603883921190027841 -0.614223178333333286 0.00637432249999999971 9.80795755333333297
IMU 1624426287.54854059 0.000150098315671509804 -0.000949459113084899129 -0.000329867228626922696 -0.615367287499999915 0.0254972899999999988 9.81400498749999883
IMU 1624426287.55854464 0.000844739357965241166 -0.00032114058236695119 -0.00032463124087093976 -0.614059734166666593 0.0196133000000000002 9.79962190083333162
IMU 1624426287.56854081 -0.00088837258926509875 0.00121823981789202155 0.000164060949687464219 -0.598532538333333308 0.0264779550000000009 9.80926510666666651
IMU 1624426287.57853293 0.000631809189221936725 0.000204203522483333125 0.00137008346281552551 -0.613079069166666657 0.0169981933333333314 9.8247923024999988
IMU 1624426287.58854318 0.000790634151153417927 0.000150098315671509804 0.00120776784238005568 -0.606868190833333321 0.0148734191666666654 9.7948820199999993
ODOM 1624426287.5912838 0 0
IMU 1624426287.59858894 -0.000113446401379629496 -0.000736528944341594688 0.000378736447682763108 -0.611771515833333335 0.0183057466666666641 9.80076600999999847
IMU 1624426287.60858226 -0.00158650429006281868 0.000485201532054415382 0.000979129710368802217 -0.605724081666666581 0.0205939649999999988 9.80812099749999966
IMU 1624426287.61855555 -0.000808087443673360939 -0.00152018177848703526 0.000373500459926780172 -0.608175744166666643 0.0230456274999999988 9.81531254083333238
GNSS 1624426287.62192535 39.8716276916666601 116.477817010333339 37.1581001281738281 7.14869999999999983 0
IMU 1624426287.62855434 0.000157079632679486998 -0.000263544717051139327 -0.000438077642250569337 -0.618963059166666607 0.0220649624999999967 9.80436178166666572
IMU 1624426287.63854551 0.000837758040957264027 -0.00111177473352036928 -0.000382227106186751678 -0.616511396666666656 0.0220649624999999967 9.7948820199999993
IMU 1624426287.64854097 -0.00147654854718717778 0.000537561409614244418 -0.000113446401379629496 -0.60915640916666669 0.0326888333333333336 9.80092945416666517
IMU 1624426287.65853572 0.00110130275800840341 -0.000851720674973218523 0.000329867228626922696 -0.617655505833333285 0.0243531808333333349 9.79962190083333162
IMU 1624426287.66853833 -4.5378560551851801e-05 0.000736528944341594688 -0.000160570291183475595 -0.611771515833333335 0.0169981933333333314 9.81514909666666568
IMU 1624426287.67853808 4.88692190558403979e-05 -0.000472984227290455307 -0.000328121899374928438 -0.613079069166666657 0.00751843166666666621 9.80795755333333297
IMU 1624426287.68854427 -0.000476474885794443931 -0.00020594885173532741 -0.000329867228626922696 -0.620107168333333347 0.0184691908333333328 9.80681344416666789
ODOM 1624426287.69103646 0 0
IMU 1624426287.69857192 4.88692190558403979e-05 -0.000684169066781765652 -0.000932005820564956334 -0.606868190833333321 0.0277855083333333336 9.80697688833333281
IMU 1624426287.70860791 -0.00116587994033219241 -0.000357792496658831526 -0.000333357887130911266 -0.614059734166666593 0.0254972899999999988 9.81040921583333336
IMU 1624426287.71855974 6.28318530717947993e-05 0.00110479341651239182 -0.000104719755119658003 -0.615367287499999915 0.0183057466666666641 9.81629320583333254
GNSS 1624426287.7219615 39.8716276473333338 116.477816990166659 37.1562995910644531 6.97940000000000005 0
IMU 1624426287.72857356 0.000146607657167521207 -0.00115889862332421516 -1.74532925199430017e-06 -0.623866384166666621 0.0101335383333333324 9.80550589083333257
IMU 1624426287.73854518 -0.000568977336150141818 0.00158475896081082448 0.000385717764690740356 -0.62141472166666667 0.0230456274999999988 9.81629320583333254
IMU 1624426287.74855161 -0.000891863247769087374 0.000375245789178774484 -0.000932005820564956334 -0.62141472166666667 0.0184691908333333328 9.80550589083333257
IMU 1624426287.75855255 0.000375245789178774484 0.000787143492649429303 0.000277507351067093715 -0.602291754166666693 0.0134024216666666657 9.81760075916666608
IMU 1624426287.76857042 -0.000579449311662107581 0.000425860337486609261 0.00038048177693475742 -0.617655505833333285 0.0184691908333333328 9.79962190083333162
IMU 1624426287.77854228 -0.00100880030765270541 -0.000466002910282478167 4.88692190558403979e-05 -0.59984009166666663 0.0122583125000000001 9.80812099749999966
IMU 1624426287.78855109 0.000207694180987321722 -0.000106465084371652315 0.000712094334813674428 -0.618963059166666607 0.0230456274999999988 9.81155332499999844
ODOM 1624426287.7910471 0 0
IMU 1624426287.79855108 0.000207694180987321722 -0.000633554518473930929 -0.000712094334813674428 -0.610627406666666595 0.00637432249999999971 9.80681344416666789
IMU 1624426287.80855083 4.18879020478631973e-05 -0.000579449311662107581 0.00131074226824771933 -0.613079069166666657 0.0111142033333333327 9.81155332499999844
IMU 1624426287.81854773 -0.00194953277447763298 0.00038397243543874599 -0.00153938040025897258 -0.618799615000000025 0.0290930616666666628 9.80681344416666789
GNSS 1624426287.82184386 39.8716276583333311 116.477817012833327 37.1558990478515625 7.63100000000000023 0
IMU 1624426287.82854033 -0.000218166156499287513 -0.000630063859969942305 0.000598647933434044905 -0.609319853333333272 0.0279489524999999989 9.80566933499999926
IMU 1624426287.83857083 -0.00115366263556823233 0.00132470490226367361 0.000382227106186751678 -0.612915624999999964 0.0232090716666666641 9.80092945416666517
IMU 1624426287.84853649 0.000319395253114956932 0.000102974425867663705 -0.000600393262686039217 -0.612752180833333271 0.0279489524999999989 9.79243035750000068
IMU 1624426287.86853766 -0.000150098315671509804 0.000633554518473930929 -0.000600393262686039217 -0.620107168333333347 0.0207574091666666675 9.80207356333333379
IMU 1624426287.87854099 0.00111526539202435769 0.000253072741539173509 -0.00070511301780569718 -0.615203843333333333 0.0268048433333333315 9.79847779166666655
IMU 1624426287.88858676 0.000319395253114956932 0.000628318530717947993 0.000823795406941309639 -0.605724081666666581 0.0194498558333333349 9.80321767250000065
ODOM 1624426287.89101744 0 0
IMU 1624426287.89858985 0.000677187749773788404 -0.000795870138909400863 0.000710349005561680116 -0.614223178333333286 0.0160175283333333328 9.80566933499999926
IMU 1624426287.90859652 -0.000258308729295156445 0.000581194640914102002 0.000109955742875640899 -0.609319853333333272 0.0183057466666666641 9.80795755333333297
IMU 1624426287.91856289 -0.00110304808726039783 0.00111352006277236327 0.000654498469497862456 -0.609319853333333272 0.0194498558333333349 9.81040921583333336
GNSS 1624426287.92182589 39.8716277291666685 116.477817024999993 37.1618003845214844 7.04790000000000028 0
IMU 1624426287.92856431 -0.000260054058547150703 0.00015882496193148131 -0.000546288055874215978 -0.616511396666666656 0.0220649624999999967 9.79962190083333162
IMU 1624426287.93854189 9.77384381116807959e-05 -0.000790634151153417927 5.23598775598290017e-05 -0.616674840833333238 0.0147099750000000001 9.81155332499999844
IMU 1624426287.94853401 0.000214675497995298916 0.00052359877559829003 0.000439822971502563595 -0.618963059166666607 0.0147099750000000001 9.81400498749999883
IMU 1624426287.95853734 0.000375245789178774484 0.00094422312532891641 0.000769690200129486291 -0.62141472166666667 0.0254972899999999988 9.81874486833333293
IMU 1624426287.96855879 -0.00138928208458746283 -0.00120078652537207843 0.000809832772925355143 -0.616511396666666656 0.0194498558333333349 9.81040921583333336
IMU 1624426287.97853136 -0.0016353735091186592 0.000118682389135612391 -0.000991347015132762509 -0.605724081666666581 0.0230456274999999988 9.80926510666666651
IMU 1624426287.98857284 0.000160570291183475595 0.000102974425867663705 -0.000326376570122934126 -0.607031634999999903 0.0230456274999999988 9.81171676916666691
ODOM 1624426287.99101925 0 0
IMU 1624426287.99857616 -0.000628318530717947993 0.00068940505453774848 0.0001082104136236466 -0.615367287499999915 0.015854084166666664 9.81040921583333336
IMU 1624426288.00860214 -0.00100007366139273396 0.000218166156499287513 -0.000987856356628773885 -0.622558830833333299 0.0171616375000000002 9.80436178166666572
IMU 1624426288.01856303 -0.00110304808726039783 0.000797615468161395067 -5.58505360638176054e-05 -0.612915624999999964 0.0268048433333333315 9.80092945416666517
GNSS 1624426288.02184033 39.871627685 116.477816993333334 37.1559982299804688 7.25800000000000001 0
IMU 1624426288.02857041 -0.000994837673636751133 0.000534070751110255794 -0.00142418866962734886 -0.627298711666666731 0.0125852008333333324 9.79831434749999985
IMU 1624426288.03855324 -0.00206472450510925692 -3.49065850398860034e-05 -0.000171042266695441413 -0.611771515833333335 0.0219015183333333315 9.80681344416666789
IMU 1624426288.04854965 0.00116413461108019799 9.42477796076922125e-05 0.000441568300754557907 -0.616511396666666656 0.0207574091666666675 9.81155332499999844
IMU 1624426288.05853701 -0.000680678408277777028 0.00084823001646922979 0.000436332312998575025 -0.611771515833333335 0.0230456274999999988 9.80452522583333241
IMU 1624426288.06852722 -0.000898844564777064514 0.000479965544298432501 0.000926769832808973398 -0.610463962500000012 0.0290930616666666628 9.80812099749999966
IMU 1624426288.07852697 9.94837673636751079e-05 -0.000738274273593588892 -0.000109955742875640899 -0.603272419166666629 0.0349770516666666684 9.80338111666666556
IMU 1624426288.08855748 -0.00121300383013603873 0.000588175957922079141 0.000270526034059116521 -0.617818949999999978 0.0183057466666666641 9.80566933499999926
ODOM 1624426288.09102893 0 0
IMU 1624426288.09856629 0.00121300383013603873 -0.00032463124087093976 0.000331612557878917008 -0.610463962500000012 0.0230456274999999988 9.80812099749999966
IMU 1624426288.10856509 0.000481710873550426813 0.000258308729295156445 -0.000762708883121509152 -0.609483297499999965 0.0124217566666666654 9.80207356333333379
IMU 1624426288.11854792 -0.000890117918517092954 0.000797615468161395067 -0.000492182849062392631 -0.612752180833333271 0.0232090716666666641 9.79243035750000068
GNSS 1624426288.12182522 39.871627687500002 116.477817000166667 37.158599853515625 7.57000000000000028 0
IMU 1624426288.12853956 -0.000951204442336893549 6.98131700797720067e-06 -0.000167551608191452789 -0.604579972499999951 0.0181423024999999988 9.81171676916666691
IMU 1624426288.13854241 -0.00105243353895256289 0.000429350995990597831 -0.000493928178314386943 -0.622558830833333299 0.0148734191666666654 9.79962190083333162
IMU 1624426288.1485424 -0.000795870138909400863 5.75958653158119039e-05 0.000706858347057691492 -0.608339188333333336 0.0192864116666666627 9.82364819333333372
IMU 1624426288.1585331 0.000101229096615669393 -0.000422369678982620583 0.00016231562043546988 -0.608175744166666643 0.0230456274999999988 9.81645664999999923
IMU 1624426288.16853333 -0.00037699111843076885 -0.00052359877559829003 0.000652753140245868253 -0.615530731666666608 0.00866254083333333272 9.81384154333333214
IMU 1624426288.1785419 -0.000890117918517092954 0.00100705497840071121 -0.000164060949687464219 -0.605560637499999999 0.0279489524999999989 9.79618957333333285
IMU 1624426288.18859553 -0.000427605666738603519 -0.000521853446346295718 5.06145483078346964e-05 -0.620107168333333347 0.0230456274999999988 9.81514909666666568
ODOM 1624426288.19100714 0 0
IMU 1624426288.19857717 -0.000734783615089600268 0.000164060949687464219 -0.00104196156344059723 -0.611771515833333335 0.0230456274999999988 9.81874486833333293
IMU 1624426288.20905709 0.000588175957922079141 0.000678933079025782716 -0.00015882496193148131 -0.622722274999999992 0.0147099750000000001 9.82103308666666663
IMU 1624426288.21857214 -4.5378560551851801e-05 0.000788888821901423615 0.000329867228626922696 -0.615367287499999915 0.0207574091666666675 9.80926510666666651
GNSS 1624426288.2218945 39.8716276291666674 116.477817008999992 37.1584014892578125 7.2455999999999996 0
IMU 1624426288.22855973 -0.00126885436619985606 0.000378736447682763108 0.000432841654494586401 -0.615367287499999915 0.0135658658333333328 9.79962190083333162
IMU 1624426288.23854685 0.000308923277602991115 -0.00105592419745655151 -0.000439822971502563595 -0.610463962500000012 0.0219015183333333315 9.80452522583333241
IMU 1624426288.24854374 -0.00116587994033219241 -0.000148352986419515519 0.000267035375555127897 -0.609483297499999965 0.0122583125000000001 9.81400498749999883
IMU 1624426288.25854683 -0.00105766952670854593 0.000429350995990597831 0.000708603676309685804 -0.607031634999999903 0.015854084166666664 9.81040921583333336
IMU 1624426288.26854253 0.000267035375555127897 -0.000211184839491310292 -0.00153065375399900113 -0.611771515833333335 0.0266413991666666662 9.80812099749999966
IMU 1624426288.27854228 -0.000527089434102278654 0.000740019602845583204 0.00120427718387606706 -0.617655505833333285 0.0232090716666666641 9.79962190083333162
IMU 1624426288.28855872 -0.000528834763354272966 0.00053058009260626717 0.00125838239068789019 -0.611771515833333335 0.015854084166666664 9.81040921583333336
ODOM 1624426288.29100966 0 0
IMU 1624426288.29855394 -0.000577703982410113269 0.000319395253114956932 -5.58505360638176054e-05 -0.610463962500000012 0.0279489524999999989 9.79962190083333162
IMU 1624426288.30855393 -0.00107163216072450021 -0.000886627260013104438 0.00125140107367991316 -0.614059734166666593 0.0243531808333333349 9.80092945416666517
IMU 1624426288.3185544 6.63225115757833962e-05 0.00152716309549501251 3.49065850398860034e-06 -0.614223178333333286 0.0111142033333333327 9.80910166249999982
GNSS 1624426288.32189941 39.8716275766666683 116.477816993333334 37.1478004455566406 7.2466999999999997 0
IMU 1624426288.32853889 -5.06145483078346964e-05 0.000472984227290455307 0.00065798912800185108 -0.611771515833333335 0.00997009416666666537 9.8019101191666671
IMU 1624426288.33851242 0.000371755130674785914 0.000101229096615669393 -0.000326376570122934126 -0.59984009166666663 0.0135658658333333328 9.79847779166666655
IMU 1624426288.34852719 -0.00138753675533546863 -0.000621337213709970853 0.001633628179866665 -0.612915624999999964 0.0183057466666666641 9.80321767250000065
IMU 1624426288.35853529 -0.000151843644923504089 0.000842994028713246963 0.000219911485751281797 -0.603272419166666629 0.0279489524999999989 9.7948820199999993
IMU 1624426288.36855125 -0.000635299847725925241 5.75958653158119039e-05 0.000488692190558404006 -0.612915624999999964 0.0173250816666666654 9.79128624833333205
IMU 1624426288.37854266 -0.00200363798128945633 0.000752236907609543279 -5.93411945678061956e-05 -0.614059734166666593 0.0266413991666666662 9.81171676916666691
IMU 1624426288.3885591 -0.00099832833214073954 0.000481710873550426813 -0.000549778714378204494 -0.615367287499999915 0.0232090716666666641 9.80321767250000065
ODOM 1624426288.39112616 0 0
IMU 1624426288.39854813 0.00053058009260626717 0.00020594885173532741 0.000165806278939458504 -0.617655505833333285 0.0243531808333333349 9.81286087833333198
IMU 1624426288.40857005 -0.000527089434102278654 -0.000151843644923504089 -0.000767944870877491979 -0.608339188333333336 0.0147099750000000001 9.81514909666666568
IMU 1624426288.41856074 -0.000420624349730626325 0.000528834763354272966 0.000820304748437321015 -0.617655505833333285 0.0279489524999999989 9.80321767250000065
GNSS 1624426288.42184353 39.8716275860000025 116.477816962666651 37.1479988098144531 7.54680000000000017 0
IMU 1624426288.42855096 0.000834267382453275511 -0.000795870138909400863 0.00109432144100042616 -0.617655505833333285 0.0266413991666666662 9.81286087833333198
IMU 1624426288.43854928 0.000954695100840882065 4.36332312998575025e-05 -0.000596902604182050593 -0.615367287499999915 0.0194498558333333349 9.80926510666666651
IMU 1624426288.44854498 -0.000844739357965241166 0.000584685299418090517 0.000818559419185326703 -0.603435863333333322 0.0183057466666666641 9.80321767250000065
IMU 1624426288.4586041 -0.000785398163397434991 0.000795870138909400863 -5.41052068118233001e-05 -0.597388429166666679 0.0194498558333333349 9.80812099749999966
IMU 1624426288.46853542 -0.000525344104850284234 0.00053058009260626717 0.000600393262686039217 -0.611771515833333335 0.0241897366666666627 9.81400498749999883
IMU 1624426288.47855997 0.000223402144255270422 0.00099832833214073954 -0.000816814089933332499 -0.609483297499999965 0.0183057466666666641 9.81514909666666568
IMU 1624426288.48853374 0.000113446401379629496 0.000684169066781765652 -0.000434586983746580713 -0.612915624999999964 0.0171616375000000002 9.80566933499999926
ODOM 1624426288.49103498 0 0
IMU 1624426288.49855089 -0.000315904594610968363 -0.000364773813666808666 -0.00109606677025242036 -0.613079069166666657 0.015854084166666664 9.81629320583333254
IMU 1624426288.50855756 -0.000842994028713246963 0.000322885911618945502 -0.000111701072127635211 -0.612915624999999964 0.0207574091666666675 9.80681344416666789
IMU 1624426288.51855493 -0.000472984227290455307 0.000476474885794443931 0.000272271363311110779 -0.620107168333333347 0.0183057466666666641 9.80910166249999982
GNSS 1624426288.52196431 39.8716277199999993 116.477816686000011 37.1394996643066406 8.74830000000000041 0
IMU 1624426288.5285542 0.000226892802759258991 0.00142069801112336023 -0.000595157274930056281 -0.618963059166666607 0.0207574091666666675 9.80566933499999926
IMU 1624426288.53854012 -0.000642281164733902381 -0.000783652834145440787 0.00037699111843076885 -0.615367287499999915 0.0279489524999999989 9.81040921583333336
IMU 1624426288.54856181 -0.00068242373752977134 0.000216420827247293201 -0.000603883921190027841 -0.612915624999999964 0.0124217566666666654 9.80207356333333379
IMU 1624426288.55853391 0.000466002910282478167 -0.000635299847725925241 0.00114842664781224929 -0.617655505833333285 0.0232090716666666641 9.79962190083333162
IMU 1624426288.56853318 -0.00104894288044857426 0.00032463124087093976 -0.00158999494856680731 -0.608175744166666643 0.0147099750000000001 9.80681344416666789
IMU 1624426288.57853031 -0.00014311699866353261 0.00179070781254615178 0.000277507351067093715 -0.610300518333333319 0.0315447241666666628 9.7948820199999993
IMU 1624426288.58855367 -5.41052068118233001e-05 0.000157079632679486998 0.000930260491312961913 -0.611771515833333335 0.0254972899999999988 9.80812099749999966
ODOM 1624426288.5910244 0 0
IMU 1624426288.59854913 -4.71238898038461062e-05 0.000211184839491310292 -0.000656243798749856877 -0.611771515833333335 0.0147099750000000001 9.81400498749999883
IMU 1624426288.60866666 -0.00201236462754942778 0.000225147473507264706 0.000757472895365526215 -0.610627406666666595 0.015854084166666664 9.80681344416666789
IMU 1624426288.61854577 -0.00190066355542179268 0.000436332312998575025 -0.000389208423194728926 -0.607031634999999903 0.0194498558333333349 9.80452522583333241
GNSS 1624426288.62192297 39.8716277263333367 116.477816677666667 37.137298583984375 8.39739999999999931 0
IMU 1624426288.62853837 0.000898844564777064514 4.5378560551851801e-05 3.49065850398860034e-06 -0.608175744166666643 0.0183057466666666641 9.79602612916666615
IMU 1624426288.63854694 0.000420624349730626325 -0.000160570291183475595 0.000109955742875640899 -0.610463962500000012 0.0230456274999999988 9.80681344416666789
IMU 1624426288.64852905 0.000432841654494586401 0.00110130275800840341 0.000113446401379629496 -0.613079069166666657 0.0171616375000000002 9.81155332499999844
IMU 1624426288.65852761 -0.000734783615089600268 0.000952949771588887861 0.000602138591938033529 -0.615367287499999915 0.0289296174999999975 9.82234064000000018
IMU 1624426288.6685307 0.00032463124087093976 0.00110304808726039783 0.000769690200129486291 -0.604579972499999951 0.0230456274999999988 9.80321767250000065
IMU 1624426288.67854452 -0.000314159265358973996 -4.88692190558403979e-05 -0.00104021623418860281 -0.618963059166666607 0.0171616375000000002 9.81629320583333254
IMU 1624426288.68860102 -0.00153065375399900113 0.000169296937443447101 -0.000661479786505839813 -0.614223178333333286 0.0171616375000000002 9.80207356333333379
ODOM 1624426288.69102526 0 0
IMU 1624426288.69859099 -0.00057072266540213613 0.00137357412131951435 0.000548033385126210182 -0.603435863333333322 0.0122583125000000001 9.80926510666666651
IMU 1624426288.70860672 -0.000478220215046438243 0.0001082104136236466 0.000818559419185326703 -0.604579972499999951 0.0194498558333333349 9.80566933499999926
IMU 1624426288.71856666 9.94837673636751079e-05 -0.000315904594610968363 0.000874409955249144254 -0.620107168333333347 0.0254972899999999988 9.81760075916666608
GNSS 1624426288.72196317 39.8716276451666687 116.477816616166663 37.1287994384765625 8.37139999999999951 0
IMU 1624426288.72856331 0.000373500459926780172 -0.000106465084371652315 -0.00131248759749971375 -0.613079069166666657 0.0147099750000000001 9.80681344416666789
IMU 1624426288.73854399 4.71238898038461062e-05 -0.000368264472170797344 0.000600393262686039217 -0.616511396666666656 0.0171616375000000002 9.81040921583333336
IMU 1624426288.74854302 -0.000425860337486609261 0.000265290046303133585 0.00131248759749971375 -0.622558830833333299 0.0171616375000000002 9.81040921583333336
IMU 1624426288.75854039 -1.57079632679486998e-05 -0.00157952297305484143 0.00070511301780569718 -0.625010493333333361 0.0137293099999999998 9.79962190083333162
IMU 1624426288.76852918 -0.000258308729295156445 0.00126536370769586744 0.0018081611050660949 -0.611771515833333335 0.0171616375000000002 9.80321767250000065
IMU 1624426288.77853847 -0.00169471470368646538 -3.83972435438746003e-05 0.00032114058236695119 -0.62141472166666667 0.0219015183333333315 9.81155332499999844
IMU 1624426288.78855801 -5.06145483078346964e-05 -5.06145483078346964e-05 -0.000710349005561680116 -0.624847049166666668 0.0220649624999999967 9.79962190083333162
ODOM 1624426288.79104018 0 0
IMU 1624426288.79854631 -0.000902335223281053138 6.98131700797720067e-06 0.000596902604182050593 -0.617655505833333285 0.0219015183333333315 9.80926510666666651
IMU 1624426288.8085804 -0.00053058009260626717 0.0001082104136236466 0.000598647933434044905 -0.612915624999999964 0.0266413991666666662 9.80812099749999966
IMU 1624426288.81855607 -0.00121474915938803271 0.000115191730631623808 -0.000495673507566381255 -0.612915624999999964 0.0243531808333333349 9.80812099749999966
GNSS 1624426288.82186079 39.8716277103333354 116.47781670583332 37.1416015625 8.65799999999999947 0
IMU 1624426288.82854152 -0.000582939970166096205 -0.000626573201465953789 -0.00126187304919187903 -0.606868190833333321 0.0207574091666666675 9.7901421391666652
IMU 1624426288.83853936 0.000211184839491310292 0.000628318530717947993 0.00158999494856680731 -0.607031634999999903 0.0147099750000000001 9.80321767250000065
IMU 1624426288.84855008 0.000267035375555127897 -0.00015882496193148131 -0.00120253185462407285 -0.606868190833333321 0.0194498558333333349 9.80321767250000065
IMU 1624426288.85853958 -0.000785398163397434991 0.000268780704807122209 -0.00126012771993988461 -0.607031634999999903 0.0147099750000000001 9.81286087833333198
IMU 1624426288.868536 -0.00142593399887934306 0.00132645023151566803 0.00257086998818760373 -0.609319853333333272 0.0207574091666666675 9.80092945416666517
IMU 1624426288.87854195 0.000209439510239316007 -0.000211184839491310292 -0.000218166156499287513 -0.604416528333333258 0.0338329424999999975 9.79618957333333285
IMU 1624426288.88866425 -0.000792379480405412239 0.000111701072127635211 -5.75958653158119039e-05 -0.598695982500000001 0.0134024216666666657 9.80812099749999966
ODOM 1624426288.89101815 0 0
IMU 1624426288.89857697 0.000153588974175498401 -0.00142244334037535465 -0.00235619449019230541 -0.610627406666666595 0.015854084166666664 9.80566933499999926
IMU 1624426288.91083288 0.0014311699866353261 0.000883136601509115814 0.00148527519344714923 -0.612915624999999964 0.0232090716666666641 9.79962190083333162
IMU 1624426288.91855216 -0.000830776723949286887 0.00132295957301167963 -0.000764454212373503355 -0.622558830833333299 0.0135658658333333328 9.81269743416666707
GNSS 1624426288.92182302 39.8716276593333276 116.477816632500009 37.131500244140625 8.9480000000000004 0
IMU 1624426288.92854762 -0.00122173047639601018 -4.18879020478631973e-05 0.00119904119612008401 -0.60801229999999995 0.0266413991666666662 9.80566933499999926
IMU 1624426288.93854713 0.00105766952670854593 9.59931088596864974e-05 0.000167551608191452789 -0.608175744166666643 0.0171616375000000002 9.80321767250000065
IMU 1624426288.94853568 -0.000485201532054415382 -0.000837758040957264027 0.000706858347057691492 -0.612915624999999964 0.0243531808333333349 9.80207356333333379
IMU 1624426288.95853162 -0.000420624349730626325 -0.00020594885173532741 -0.00120602251312806126 -0.62615460249999999 0.0183057466666666641 9.81874486833333293
IMU 1624426288.96854281 0.000591666616426067766 0.00152192710773902968 0.00088139127225712161 -0.612915624999999964 0.0171616375000000002 9.80321767250000065
IMU 1624426288.97852612 -0.000586430628670084829 -0.000153588974175498401 0.000816814089933332499 -0.605724081666666581 0.0194498558333333349 9.81040921583333336
IMU 1624426288.98858309 -0.00111526539202435769 -0.000780162175641452055 -0.000827286065445298154 -0.611608071666666642 0.0326888333333333336 9.80926510666666651
ODOM 1624426288.9910233 0 0
IMU 1624426288.99855328 -0.000577703982410113269 0.000582939970166096205 0.000490437519810398318 -0.615367287499999915 0.0266413991666666662 9.80926510666666651
IMU 1624426289.0085752 0.000111701072127635211 0.00099832833214073954 0.000769690200129486291 -0.62141472166666667 0.0184691908333333328 9.80681344416666789
IMU 1624426289.01856232 -0.000314159265358973996 -0.000260054058547150703 -0.00126012771993988461 -0.613079069166666657 0.00392265999999999969 9.81024577166666489
GNSS 1624426289.02183628 39.8716276401666718 116.477816625000017 37.1365013122558594 8.1095000000000006 0
IMU 1624426289.0285418 -0.000691150383789742901 -0.000467748239534472425 -5.75958653158119039e-05 -0.618963059166666607 0.0232090716666666641 9.81040921583333336
IMU 1624426289.03854799 -0.00163886416762264761 0.000644026493985896801 0.000925024503556978977 -0.615367287499999915 0.0196133000000000002 9.79962190083333162
IMU 1624426289.0485487 0.000111701072127635211 0.000945968454580910613 0.000495673507566381255 -0.611608071666666642 0.0243531808333333349 9.80207356333333379
IMU 1624426289.05853128 -5.23598775598289966e-06 -5.23598775598290017e-05 0.00158650429006281868 -0.611771515833333335 0.0148734191666666654 9.79602612916666615
IMU 1624426289.06853271 0 0.000104719755119658003 0.000164060949687464219 -0.603272419166666629 0.0302371708333333301 9.80092945416666517
IMU 1624426289.07853055 0.000790634151153417927 -0.000373500459926780172 -5.23598775598290017e-05 -0.616511396666666656 0.0207574091666666675 9.81400498749999883
IMU 1624426289.08856392 0.000841248699461252651 -0.000427605666738603519 0.000219911485751281797 -0.617655505833333285 0.0232090716666666641 9.80436178166666572
ODOM 1624426289.09102488 0 0
IMU 1624426289.098557 0.00158126830230683585 -0.00038048177693475742 0.000661479786505839813 -0.610627406666666595 0.0266413991666666662 9.81531254083333238
IMU 1624426289.10854387 -0.00122347580564800417 -0.000357792496658831526 0.00064926248174187952 -0.613079069166666657 0.0111142033333333327 9.80795755333333297
IMU 1624426289.11855721 0.000534070751110255794 0.000942477796076921989 0.000715584993317663052 -0.60801229999999995 0.0338329424999999975 9.81057265999999828
GNSS 1624426289.12183189 39.8716277695000016 116.477816664666662 37.1487007141113281 8.21889999999999965 0
IMU 1624426289.12854218 0.000265290046303133585 0.000207694180987321722 0.000329867228626922696 -0.60212831 0.0241897366666666627 9.81171676916666691
IMU 1624426289.13854098 -0.000364773813666808666 0.000476474885794443931 -0.000328121899374928438 -0.615367287499999915 0.00768187583333333323 9.80436178166666572
IMU 1624426289.14854145 -0.000687659725285754168 0.00032114058236695119 0.000764454212373503355 -0.614059734166666593 0.0279489524999999989 9.80812099749999966
IMU 1624426289.15852594 0.000647517152489885317 0.000837758040957264027 -0.00152716309549501251 -0.600984200833333371 0.0183057466666666641 9.79618957333333285
IMU 1624426289.16853428 0.00186052098262592383 0.000722566310325640192 -0.000591666616426067766 -0.615530731666666608 0.00866254083333333272 9.81384154333333214
IMU 1624426289.17854214 -0.000518362787842307094 0.00053058009260626717 -0.00131248759749971375 -0.618963059166666607 0.0171616375000000002 9.80910166249999982
IMU 1624426289.18857646 -0.000617846555205982229 0.00084823001646922979 -0.00229859862487649322 -0.610463962500000012 0.0230456274999999988 9.80321767250000065
ODOM 1624426289.19123387 0 0
IMU 1624426289.1985774 0.000588175957922079141 0.00131074226824771933 0.00126536370769586744 -0.62615460249999999 0.0184691908333333328 9.81269743416666707
IMU 1624426289.20858216 0.000373500459926780172 0.000260054058547150703 -0.00032463124087093976 -0.623702940000000039 0.0232090716666666641 9.81040921583333336
IMU 1624426289.2185657 -0.000363028484414814408 0.00126536370769586744 0.00142418866962734886 -0.615367287499999915 0.0124217566666666654 9.80681344416666789
GNSS 1624426289.22191739 39.8716277085000002 116.47781665250001 37.1371002197265625 8.55460000000000065 0
IMU 1624426289.22855949 -0.00111701072127635211 -0.000727802298081623128 -5.23598775598289966e-06 -0.602291754166666693 0.0240262924999999974 9.8247923024999988
IMU 1624426289.23854017 -0.000106465084371652315 0 0.000218166156499287513 -0.615367287499999915 0.0207574091666666675 9.80681344416666789
IMU 1624426289.24853683 8.72664625997150084e-06 0.000842994028713246963 -0.000708603676309685804 -0.614059734166666593 0.0197767441666666655 9.78769047666666658
IMU 1624426289.25852919 -0.00180117978805811765 -0.000195476876223361592 0.000101229096615669393 -0.60915640916666669 0.0254972899999999988 9.7948820199999993
IMU 1624426289.26852894 0.000478220215046438243 0.000469493568786466737 0.000331612557878917008 -0.623702940000000039 0.0184691908333333328 9.8019101191666671
IMU 1624426289.27853513 0.000844739357965241166 0.000466002910282478167 0.00137182879206751993 -0.615367287499999915 0.0183057466666666641 9.80566933499999926
IMU 1624426289.2885921 5.75958653158119039e-05 -5.23598775598290017e-05 -0.00142244334037535465 -0.605724081666666581 0.0289296174999999975 9.81171676916666691
ODOM 1624426289.291008 0 0
IMU 1624426289.29858732 -0.000525344104850284234 -0.000415388361974643443 -0.0018081611050660949 -0.606868190833333321 0.0302371708333333301 9.80566933499999926
IMU 1624426289.30867338 0.000740019602845583204 4.5378560551851801e-05 0.000111701072127635211 -0.617818949999999978 0.0196133000000000002 9.80681344416666789
IMU 1624426289.31870222 0.000478220215046438243 0.000469493568786466737 0.000495673507566381255 -0.604579972499999951 0.00882598499999999973 9.80076600999999847
GNSS 1624426289.32194304 39.8716276675000003 116.477816668833327 37.1371994018554688 8.42800000000000082 0
IMU 1624426289.3285594 0.000481710873550426813 0.000733038285837606064 0.00022165681500327611 -0.620107168333333347 0.0207574091666666675 9.81269743416666707
IMU 1624426289.33854389 -0.00068940505453774848 -0.000308923277602991115 -0.000111701072127635211 -0.616511396666666656 0.0148734191666666654 9.80321767250000065
IMU 1624426289.34853601 -0.000315904594610968363 0.000474729556542449564 0.000874409955249144254 -0.60915640916666669 0.0256607341666666676 9.79259380166666737
IMU 1624426289.35853887 -0.00015882496193148131 0 0 -0.612915624999999964 0.0219015183333333315 9.80321767250000065
IMU 1624426289.36857009 -0.000253072741539173509 0.00105417886820455731 -0.000106465084371652315 -0.625010493333333361 0.0184691908333333328 9.80681344416666789
IMU 1624426289.3785398 -5.93411945678061956e-05 -0.000631809189221936725 0.000544542726622221558 -0.608175744166666643 0.0277855083333333336 9.81531254083333238
IMU 1624426289.38856053 5.41052068118233001e-05 0.00068242373752977134 0.00126012771993988461 -0.60212831 0.0254972899999999988 9.79978534499999832
ODOM 1624426289.39105105 0 0
IMU 1624426289.39855647 0.000638790506229913865 0.000994837673636751133 0.00137357412131951435 -0.612915624999999964 0.0266413991666666662 9.81286087833333198
IMU 1624426289.40856433 0.000417133691226637755 -0.000792379480405412239 -0.000438077642250569337 -0.611771515833333335 0.0194498558333333349 9.81040921583333336
IMU 1624426289.41855574 -0.00116413461108019799 -0.000200712863979344501 -0.000661479786505839813 -0.60915640916666669 0.0326888333333333336 9.80092945416666517
GNSS 1624426289.42187524 39.8716277631666642 116.47781668333333 37.1353988647460938 8.21199999999999974 0
IMU 1624426289.42855287 -0.000630063859969942305 0.000478220215046438243 -0.000109955742875640899 -0.610627406666666595 0.015854084166666664 9.81040921583333336
IMU 1624426289.43853736 0.000111701072127635211 0.000893608577021081686 0.000549778714378204494 -0.614223178333333286 0.015854084166666664 9.80910166249999982
IMU 1624426289.44854355 -0.00115540796482022654 0.000851720674973218523 -0.000439822971502563595 -0.616511396666666656 0.0232090716666666641 9.80681344416666789
IMU 1624426289.458529 -0.000418879020478632013 0.000897099235525070202 0.000986111027376779465 -0.609319853333333272 0.0289296174999999975 9.81286087833333198
IMU 1624426289.4685421 -0.00143989663289529756 -0.00156730566829088157 -0.000776671517137463539 -0.606868190833333321 0.0313812799999999975 9.81416843166666553
IMU 1624426289.47853184 -0.000631809189221936725 5.75958653158119039e-05 -0.000439822971502563595 -0.606868190833333321 0.0219015183333333315 9.79962190083333162
IMU 1624426289.48857355 -0.00115366263556823233 0.00090408055253304745 -0.000438077642250569337 -0.622395386666666717 0.0196133000000000002 9.797170238333333
ODOM 1624426289.49102139 0 0
IMU 1624426289.49858189 -0.000104719755119658003 0.000157079632679486998 0.000436332312998575025 -0.608175744166666643 0.0217380741666666662 9.81400498749999883
IMU 1624426289.50856137 -0.000954695100840882065 -0.000150098315671509804 0.000104719755119658003 -0.610463962500000012 0.0277855083333333336 9.81286087833333198
IMU 1624426289.51856446 0.000104719755119658003 0 5.41052068118233001e-05 -0.610627406666666595 0.0205939649999999988 9.81645664999999923
GNSS 1624426289.52196717 39.8716275304999996 116.477816399999995 37.1453018188476562 8.2931000000000008 0
IMU 1624426289.52855635 -0.000260054058547150703 0.000370009801422791602 -5.41052068118233001e-05 -0.616511396666666656 0.0147099750000000001 9.80681344416666789
IMU 1624426289.53854632 -0.00111352006277236327 -0.00051661745859031289 -0.000771435529381480712 -0.612915624999999964 0.0254972899999999988 9.81155332499999844
IMU 1624426289.5485363 0.00070511301780569718 0.000890117918517092954 -0.00256563400043162112 -0.617655505833333285 0.0338329424999999975 9.80681344416666789
IMU 1624426289.55853939 0.000216420827247293201 0.000945968454580910613 0.00104370689269259144 -0.614223178333333286 0.00637432249999999971 9.80076600999999847
IMU 1624426289.56854057 0.000225147473507264706 0.000945968454580910613 -0.00141895268187136581 -0.616511396666666656 0.0207574091666666675 9.81040921583333336
IMU 1624426289.57852674 -0.000952949771588887861 0.000270526034059116521 0.000706858347057691492 -0.617818949999999978 0.0183057466666666641 9.80550589083333257
IMU 1624426289.588552 -0.000644026493985896801 -0.000942477796076921989 0.000212930168743304631 -0.615203843333333333 0.0338329424999999975 9.80681344416666789
ODOM 1624426289.59101868 0 0
IMU 1624426289.59855819 0.000584685299418090517 0.000467748239534472425 0.00022165681500327611 -0.609483297499999965 0.0111142033333333327 9.80681344416666789
IMU 1624426289.60857558 0.000418879020478632013 -0.000528834763354272966 -0.000272271363311110779 -0.614059734166666593 0.0302371708333333301 9.80812099749999966
IMU 1624426289.61855006 0.000209439510239316007 -0.00031764992386296262 -0.000328121899374928438 -0.614223178333333286 0.0194498558333333349 9.80795755333333297
GNSS 1624426289.62193704 39.8716275328333367 116.477816414333333 37.152099609375 9.11500000000000021 0
IMU 1624426289.62854671 -0.00121125850088404431 0.000272271363311110779 -0.000987856356628773885 -0.611771515833333335 0.0184691908333333328 9.79602612916666615
IMU 1624426289.63854194 -5.41052068118233001e-05 -0.000366519142918803032 -0.00038397243543874599 -0.60801229999999995 0.0266413991666666662 9.80452522583333241
IMU 1624426289.64853859 -0.000150098315671509804 0.000527089434102278654 -0.000710349005561680116 -0.623702940000000039 0.0184691908333333328 9.80436178166666572
IMU 1624426289.65854168 -0.000841248699461252651 0.000795870138909400863 0.000600393262686039217 -0.625010493333333361 0.0171616375000000002 9.80681344416666789
IMU 1624426289.66857529 -0.00115715329407222096 0.000167551608191452789 -0.00120776784238005568 -0.598532538333333308 0.0289296174999999975 9.80452522583333241
IMU 1624426289.67853808 -0.000525344104850284234 3.49065850398860034e-06 -0.00065798912800185108 -0.603435863333333322 0.0194498558333333349 9.80566933499999926
IMU 1624426289.68856788 -0.00200712863979344517 0.000647517152489885317 0.000595157274930056281 -0.614059734166666593 0.0243531808333333349 9.80681344416666789
ODOM 1624426289.69102573 0 0
IMU 1624426289.69855499 -0.000680678408277777028 0.000164060949687464219 -0.00142418866962734886 -0.615367287499999915 0.0171616375000000002 9.81400498749999883
IMU 1624426289.70857787 -0.000994837673636751133 0.000797615468161395067 -0.000712094334813674428 -0.615367287499999915 0.0207574091666666675 9.80436178166666572
IMU 1624426289.71855879 -0.000729547627333617331 0.000900589894029058826 -0.000874409955249144254 -0.625991158333333408 0.0268048433333333315 9.81040921583333336
GNSS 1624426289.72196603 39.8716275971666718 116.477816390333345 37.1559982299804688 9.13069999999999915 0
IMU 1624426289.7285502 0.000589921287174073345 0.000733038285837606064 -0.000596902604182050593 -0.608175744166666643 0.0230456274999999988 9.80566933499999926
IMU 1624426289.73854971 0.00100356431989672258 0.000200712863979344501 0.000715584993317663052 -0.610627406666666595 0.0217380741666666662 9.82724396499999919
IMU 1624426289.74861097 -0.00137706477982350276 0.000219911485751281797 0.00070511301780569718 -0.605724081666666581 0.0254972899999999988 9.80697688833333281
IMU 1624426289.7585268 5.75958653158119039e-05 0.000472984227290455307 -0.000434586983746580713 -0.611608071666666642 0.0232090716666666641 9.7948820199999993
IMU 1624426289.76853895 0.000410152374218660507 -0.000687659725285754168 0.00153065375399900113 -0.628606265000000053 0.0124217566666666654 9.80550589083333257
IMU 1624426289.77853203 -0.000942477796076921989 0.00074525559060156614 -0.000712094334813674428 -0.611771515833333335 0.0124217566666666654 9.80566933499999926
IMU 1624426289.78854394 -0.00201410995680142242 0.000172787595947435725 0.00119555053761609561 -0.617818949999999978 0.0196133000000000002 9.81040921583333336
ODOM 1624426289.79103446 0 0
IMU 1624426289.79855776 0.000165806278939458504 0.000630063859969942305 -0.000488692190558404006 -0.612915624999999964 0.0243531808333333349 9.80926510666666651
IMU 1624426289.80857086 -0.00110479341651239182 0.000165806278939458504 -0.00120776784238005568 -0.604579972499999951 0.0230456274999999988 9.81171676916666691
IMU 1624426289.81855392 -0.000952949771588887861 -0.000254818070791167821 -0.000277507351067093715 -0.605724081666666581 0.0277855083333333336 9.80566933499999926
GNSS 1624426289.82181597 39.8716275754999998 116.477816410833327 37.1510009765625 9.22789999999999999 0
IMU 1624426289.82854176 0.000637045176977919445 -3.49065850398860034e-06 -0.000816814089933332499 -0.610627406666666595 0.0289296174999999975 9.81890831249999962
IMU 1624426289.83853912 -0.000481710873550426813 5.41052068118233001e-05 0.00196873139624957052 -0.607031634999999903 0.0181423024999999988 9.81645664999999923
IMU 1624426289.84854984 -0.00100356431989672258 -0.000359537825910825838 -0.00120776784238005568 -0.6191265033333333 0.00637432249999999971 9.81269743416666707
IMU 1624426289.85853338 -0.000945968454580910613 0.000481710873550426813 -0.00071383966406566874 -0.605724081666666581 0.0302371708333333301 9.80566933499999926
IMU 1624426289.86853266 -0.000429350995990597831 -0.000891863247769087374 -0.000223402144255270422 -0.608175744166666643 0.0243531808333333349 9.80566933499999926
IMU 1624426289.87853575 0.00101054563690469983 0.000518362787842307094 5.23598775598289966e-06 -0.60212831 0.0230456274999999988 9.81171676916666691
IMU 1624426289.88859034 -0.000214675497995298916 -0.000418879020478632013 -0.000111701072127635211 -0.613079069166666657 0.00980665000000000009 9.81760075916666608
ODOM 1624426289.89101076 0 0
IMU 1624426289.89857388 0.000315904594610968363 0.000207694180987321722 0.000603883921190027841 -0.623702940000000039 0.0207574091666666675 9.81514909666666568
IMU 1624426289.90858698 -0.000794124809657406551 -0.000940732466824927786 -0.00192160750644572442 -0.615367287499999915 0.0279489524999999989 9.81040921583333336
IMU 1624426289.9185493 0.000268780704807122209 0.000891863247769087374 0.000987856356628773885 -0.610627406666666595 0.0147099750000000001 9.80566933499999926
GNSS 1624426289.92182446 39.8716275055000011 116.477816428666671 37.145599365234375 9.06509999999999927 0
IMU 1624426289.92855144 0.000638790506229913865 9.94837673636751079e-05 -0.000652753140245868253 -0.623866384166666621 0.0160175283333333328 9.81269743416666707
IMU 1624426289.93853998 0.000366519142918803032 -0.000212930168743304631 0.000328121899374928438 -0.611771515833333335 0.0219015183333333315 9.81286087833333198
IMU 1624426289.94855261 -0.000363028484414814408 0.000581194640914102002 -0.000546288055874215978 -0.611771515833333335 0.0219015183333333315 9.80566933499999926
IMU 1624426289.95853543 -0.00016231562043546988 -0.000209439510239316007 0.000436332312998575025 -0.607031634999999903 0.0230456274999999988 9.81531254083333238
IMU 1624426289.96853352 0.000738274273593588892 -0.00032114058236695119 -0.00038048177693475742 -0.609483297499999965 0.0169981933333333314 9.81514909666666568
IMU 1624426289.97854066 1.22173047639600995e-05 0.00131597825600370216 -0.000212930168743304631 -0.609319853333333272 0.0194498558333333349 9.80812099749999966
IMU 1624426289.9886148 0.0001082104136236466 0.000209439510239316007 -0.000326376570122934126 -0.6191265033333333 0.00392265999999999969 9.81155332499999844
ODOM 1624426289.99101162 0 0
IMU 1624426289.99858522 8.72664625997150084e-06 0 -0.00251676478137578038 -0.609319853333333272 0.0243531808333333349 9.80321767250000065
IMU 1624426290.00855637 0.00032463124087093976 0.000996583002888745337 0.000387463093942734614 -0.609319853333333272 0.0183057466666666641 9.80321767250000065
IMU 1624426290.01855326 0.000272271363311110779 0.000575958653158119066 -0.000652753140245868253 -0.618963059166666607 0.0207574091666666675 9.80795755333333297
GNSS 1624426290.02183723 39.8716275076666662 116.477816396333338 37.1498985290527344 9.31090000000000018 0
IMU 1624426290.02862453 0.000106465084371652315 -0.000472984227290455307 -0.00142418866962734886 -0.610627406666666595 0.0122583125000000001 9.81040921583333336
IMU 1624426290.03853917 0.000834267382453275511 -0.000795870138909400863 0.00115017197706424371 -0.615530731666666608 0.0111142033333333327 9.81155332499999844
IMU 1624426290.04854751 -0.000687659725285754168 0.00016231562043546988 0.00032463124087093976 -0.610463962500000012 0.0230456274999999988 9.80681344416666789
IMU 1624426290.05853319 0.000102974425867663705 0.000471238898038460995 0.0014782938764391722 -0.607031634999999903 0.00882598499999999973 9.79128624833333205
IMU 1624426290.06852746 0.000268780704807122209 0.000207694180987321722 -0.000708603676309685804 -0.616511396666666656 0.0279489524999999989 9.80452522583333241
IMU 1624426290.07853007 -0.00089535390627307589 0.000691150383789742901 0.000436332312998575025 -0.606868190833333321 0.0325253891666666614 9.81057265999999828
IMU 1624426290.08856177 -0.00053930673886623873 -0.000680678408277777028 0.00125314640293190758 -0.611771515833333335 0.0160175283333333328 9.80076600999999847
ODOM 1624426290.09101725 0 0
IMU 1624426290.09855747 0.000373500459926780172 0.000575958653158119066 0.000495673507566381255 -0.608175744166666643 0.0147099750000000001 9.80566933499999926
IMU 1624426290.10856557 -0.000209439510239316007 0.000370009801422791602 0.000328121899374928438 -0.621251277499999977 0.0184691908333333328 9.80321767250000065
IMU 1624426290.11856008 0.000368264472170797344 4.88692190558403979e-05 0.000548033385126210182 -0.615367287499999915 0.00637432249999999971 9.8019101191666671
GNSS 1624426290.12182331 39.8716275066666626 116.477816406000002 37.1562995910644531 9.44350000000000023 0
IMU 1624426290.12853909 -0.00233175988066438482 -0.000453785605518517983 -0.000448549617762535101 -0.611771515833333335 0.0111142033333333327 9.80436178166666572
IMU 1624426290.13855004 -0.000860447321233189866 -0.00115191730631623813 0.000867428638241167114 -0.616674840833333238 0.00882598499999999973 9.8019101191666671
IMU 1624426290.14854193 -0.000738274273593588892 -0.000150098315671509804 -0.000769690200129486291 -0.598532538333333308 0.0147099750000000001 9.80207356333333379
IMU 1624426290.15853024 -0.00052359877559829003 0.000109955742875640899 -0.000986111027376779465 -0.625010493333333361 0.0171616375000000002 9.81024577166666489
IMU 1624426290.16852975 -0.00142593399887934306 0.00022165681500327611 -5.93411945678061956e-05 -0.601964865833333307 0.0374287141666666615 9.80812099749999966
IMU 1624426290.17854023 -0.000684169066781765652 0.000741764932097577624 0.000984365698124785261 -0.62141472166666667 0.0219015183333333315 9.81269743416666707
IMU 1624426290.18855929 -0.000106465084371652315 0.000263544717051139327 0.00104021623418860281 -0.602291754166666693 0.0134024216666666657 9.80795755333333297
ODOM 1624426290.19100451 0 0
IMU 1624426290.19855118 0.0001082104136236466 -0.000157079632679486998 -0.00109432144100042616 -0.608339188333333336 0.015854084166666664 9.81514909666666568
IMU 1624426290.20855832 -0.000574213323906124645 0.000425860337486609261 -0.000822050077689315327 -0.609319853333333272 0.0147099750000000001 9.80076600999999847
IMU 1624426290.21855974 0.000748746249105554764 0.00088837258926509875 0.000115191730631623808 -0.613079069166666657 0.0194498558333333349 9.81400498749999883
GNSS 1624426290.22182488 39.8716275561666649 116.477816430499999 37.1497001647949219 9.14100000000000001 0
IMU 1624426290.22856927 -8.72664625997150084e-06 -0.000947713783832904925 5.06145483078346964e-05 -0.605887525833333274 0.0122583125000000001 9.81040921583333336
IMU 1624426290.23854256 9.77384381116807959e-05 -0.000527089434102278654 0.000490437519810398318 -0.609319853333333272 0.0219015183333333315 9.81040921583333336
IMU 1624426290.24853826 -0.000684169066781765652 0.00032114058236695119 -0.000274016692563105091 -0.609483297499999965 0.0169981933333333314 9.81645664999999923
IMU 1624426290.25854516 0.000898844564777064514 0.000150098315671509804 0.000605629250442022153 -0.614059734166666593 0.0315447241666666628 9.80681344416666789
IMU 1624426290.26857114 -0.000628318530717947993 0.000846484687217235587 0.000602138591938033529 -0.610627406666666595 0.0124217566666666654 9.80207356333333379
IMU 1624426290.27852917 -0.000581194640914102002 -0.000310668606854985427 -0.000659734457253845392 -0.618963059166666607 0.0183057466666666641 9.81760075916666608
IMU 1624426290.28853607 -0.000479965544298432501 -0.00020594885173532741 0.000544542726622221558 -0.618799615000000025 0.0232090716666666641 9.80207356333333379
ODOM 1624426290.29099798 0 0
IMU 1624426290.29858088 -0.000788888821901423615 0.000900589894029058826 0.00109432144100042616 -0.621251277499999977 0.0232090716666666641 9.80436178166666572
IMU 1624426290.30860019 0.00038397243543874599 0.00162839219211068195 0.000335103216382905578 -0.607031634999999903 0.015854084166666664 9.81155332499999844
IMU 1624426290.31856298 0.000164060949687464219 0.000525344104850284234 -0.000160570291183475595 -0.610627406666666595 0.0194498558333333349 9.81286087833333198
GNSS 1624426290.32183194 39.8716275745000033 116.477816437000001 37.1590995788574219 9.42319999999999958 0
IMU 1624426290.32854939 0.00185877565337392962 0.000984365698124785261 0.000776671517137463539 -0.617818949999999978 0.0183057466666666641 9.81514909666666568
IMU 1624426290.33854628 0.000153588974175498401 -0.000474729556542449564 -0.000109955742875640899 -0.610627406666666595 0.0205939649999999988 9.81645664999999923
IMU 1624426290.34853506 0.000319395253114956932 0.000417133691226637755 0.000275762021815099457 -0.621251277499999977 0.0243531808333333349 9.80795755333333297
IMU 1624426290.35854053 0.000368264472170797344 -0.0001082104136236466 0.000274016692563105091 -0.608175744166666643 0.0243531808333333349 9.80452522583333241
IMU 1624426290.36852598 0.000169296937443447101 0.000893608577021081686 -0.000652753140245868253 -0.610627406666666595 0.0183057466666666641 9.80436178166666572
IMU 1624426290.37854385 -0.000467748239534472425 0.000898844564777064514 -5.23598775598290017e-05 -0.610463962500000012 0.0243531808333333349 9.7948820199999993
IMU 1624426290.38855791 -0.00094422312532891641 0.000481710873550426813 -0.00104196156344059723 -0.606868190833333321 0.0279489524999999989 9.79978534499999832
ODOM 1624426290.39102101 0 0
IMU 1624426290.39856124 -0.000989601685880768089 0.00142942465738333168 -0.000874409955249144254 -0.610627406666666595 0.00637432249999999971 9.80550589083333257
IMU 1624426290.40857863 0.000429350995990597831 0.000785398163397434991 3.49065850398860034e-06 -0.611771515833333335 0.0135658658333333328 9.80681344416666789
IMU 1624426290.41856503 0.000207694180987321722 -0.000790634151153417927 -0.000876155284501138674 -0.607031634999999903 0.0171616375000000002 9.80321767250000065
GNSS 1624426290.42195725 39.8716275398333337 116.477816387666678 37.1514015197753906 8.99569999999999936 0
IMU 1624426290.42855668 -0.000474729556542449564 -0.000153588974175498401 -0.00065798912800185108 -0.615203843333333333 0.0326888333333333336 9.80926510666666651
IMU 1624426290.43853951 -0.00111002940426837486 -0.000200712863979344501 -0.000989601685880768089 -0.611771515833333335 0.0205939649999999988 9.81286087833333198
IMU 1624426290.44854951 0.000111701072127635211 0.000577703982410113269 -0.000434586983746580713 -0.604579972499999951 0.0194498558333333349 9.80926510666666651
IMU 1624426290.45854163 0.000371755130674785914 0.000364773813666808666 0.000493928178314386943 -0.611608071666666642 0.0243531808333333349 9.7973336824999997
IMU 1624426290.46852708 -0.000844739357965241166 -4.5378560551851801e-05 -0.000331612557878917008 -0.620107168333333347 0.0268048433333333315 9.80076600999999847
IMU 1624426290.47853446 0.000115191730631623808 0.000472984227290455307 -0.00158475896081082448 -0.617655505833333285 0.0290930616666666628 9.80452522583333241
IMU 1624426290.48856974 -0.00057072266540213613 0.00132121424375968521 0.000109955742875640899 -0.605560637499999999 0.0315447241666666628 9.7973336824999997
ODOM 1624426290.4910233 0 0
IMU 1624426290.49857426 -0.000415388361974643443 0.000740019602845583204 -0.000382227106186751678 -0.615203843333333333 0.0196133000000000002 9.797170238333333
IMU 1624426290.50858855 -0.00068242373752977134 0.000532325421858261482 -0.000109955742875640899 -0.615367287499999915 0.0184691908333333328 9.797170238333333
IMU 1624426290.5185492 -0.000371755130674785914 -0.000364773813666808666 -0.000275762021815099457 -0.609483297499999965 0.00637432249999999971 9.80910166249999982
GNSS 1624426290.52196455 39.8716274204999976 116.477816003166666 37.2111015319824219 10.9344000000000001 0
IMU 1624426290.52857351 0.00052359877559829003 -5.58505360638176054e-05 0.00137008346281552551 -0.614223178333333286 0.0148734191666666654 9.79962190083333162
IMU 1624426290.53854036 -0.00020594885173532741 0.000106465084371652315 -0.00125838239068789019 -0.609319853333333272 0.0230456274999999988 9.80926510666666651
IMU 1624426290.54853916 -0.000310668606854985427 0.000476474885794443931 -0.000710349005561680116 -0.616511396666666656 0.0219015183333333315 9.81514909666666568
IMU 1624426290.55854225 -0.000364773813666808666 0.000740019602845583204 0.000438077642250569337 -0.620107168333333347 0.0279489524999999989 9.80436178166666572
IMU 1624426290.56853938 -0.000617846555205982229 0.00195302343298162182 0.000495673507566381255 -0.604579972499999951 0.0219015183333333315 9.80092945416666517
IMU 1624426290.57852697 -0.00184655834860996955 0.000541052068118233042 -0.000387463093942734614 -0.610627406666666595 0.0194498558333333349 9.80926510666666651
IMU 1624426290.58858252 0.000534070751110255794 0.000626573201465953789 0.000167551608191452789 -0.616511396666666656 0.0147099750000000001 9.80550589083333257
ODOM 1624426290.59102964 0 0
IMU 1624426290.59858203 -0.000736528944341594688 0.000164060949687464219 -0.00065798912800185108 -0.60915640916666669 0.0268048433333333315 9.79373791083333245
IMU 1624426290.6085577 0.000474729556542449564 0.000258308729295156445 0.000767944870877491979 -0.610627406666666595 0.0230456274999999988 9.81874486833333293
IMU 1624426290.61856294 -0.000370009801422791602 0.000685914396033759964 0.00164235482612663645 -0.604579972499999951 0.0147099750000000001 9.81040921583333336
GNSS 1624426290.62198353 39.871627393666671 116.477816030333329 37.2055015563964844 11.2189999999999994 0
IMU 1624426290.62854719 -0.000312413936106979684 -0.000153588974175498401 -0.00153414441250298975 -0.607031634999999903 0.0112776474999999998 9.7948820199999993
IMU 1624426290.63854671 0.00114842664781224929 -0.00132645023151566803 0.00114842664781224929 -0.616511396666666656 0.0171616375000000002 9.80207356333333379
IMU 1624426290.64853692 -0.00049916416607036977 -0.00194604211597364457 0.00168773338667848813 -0.612915624999999964 0.0230456274999999988 9.80795755333333297
IMU 1624426290.65854144 -0.00164235482612663645 6.45771823237891113e-05 0.00064926248174187952 -0.624847049166666668 0.0137293099999999998 9.79831434749999985
IMU 1624426290.66854477 -0.000256563400043162079 0.00105417886820455731 0.000767944870877491979 -0.610463962500000012 0.0254972899999999988 9.80812099749999966
IMU 1624426290.67853141 -0.000630063859969942305 0.00053058009260626717 -5.41052068118233001e-05 -0.625010493333333361 0.0219015183333333315 9.81988897749999978
